$GNRMC,014412.00,A,2930.34343,N,10634.36893,E,0.000,354.29,020221,2.60,W,D*3C
$GNGGA,014412.00,2930.34343,N,10634.36893,E,2,12,1.10,245.4,M,-26.5,M,,0000*67
$GNRMC,014413.00,A,2930.34343,N,10634.36893,E,0.000,354.29,020221,2.60,W,D*3D
$GNGGA,014413.00,2930.34343,N,10634.36893,E,2,12,1.10,245.4,M,-26.5,M,,0000*66
$GNRMC,014414.00,A,2930.34343,N,10634.36893,E,0.000,354.29,020221,2.60,W,D*3A
$GNGGA,014414.00,2930.34343,N,10634.36893,E,2,12,1.10,245.4,M,-26.5,M,,0000*61
$GNRMC,014415.00,A,2930.34343,N,10634.36893,E,0.000,354.29,020221,2.60,W,D*3B
$GNGGA,014415.00,2930.34343,N,10634.36893,E,2,12,1.10,245.4,M,-26.5,M,,0000*60
$GNRMC,014416.00,A,2930.34343,N,10634.36893,E,0.000,354.29,020221,2.60,W,D*38
$GNGGA,014416.00,2930.34343,N,10634.36893,E,2,12,1.10,245.4,M,-26.5,M,,0000*63
$GNRMC,014417.00,A,2930.34343,N,10634.36893,E,0.000,354.29,020221,2.60,W,D*39
$GNGGA,014417.00,2930.34343,N,10634.36893,E,2,12,0.94,245.4,M,-26.5,M,,0000*6F
$GNRMC,014418.00,A,2930.34343,N,10634.36893,E,0.000,354.29,020221,2.60,W,D*36
$GNGGA,014418.00,2930.34343,N,10634.36893,E,2,12,0.94,245.4,M,-26.5,M,,0000*60
$GNRMC,014419.00,A,2930.34343,N,10634.36893,E,0.000,354.29,020221,2.60,W,D*37
$GNGGA,014419.00,2930.34343,N,10634.36893,E,2,12,0.94,245.4,M,-26.5,M,,0000*61
$GNRMC,014420.00,A,2930.34343,N,10634.36893,E,0.000,354.29,020221,2.60,W,D*3D
$GNGGA,014420.00,2930.34343,N,10634.36893,E,2,12,0.94,245.4,M,-26.5,M,,0000*6B
$GNRMC,014421.00,A,2930.34343,N,10634.36893,E,0.000,354.29,020221,2.60,W,D*3C
$GNGGA,014421.00,2930.34343,N,10634.36893,E,2,12,0.94,245.4,M,-26.5,M,,0000*6A
$GNRMC,014422.00,A,2930.34343,N,10634.36893,E,0.000,354.29,020221,2.60,W,D*3F
$GNGGA,014422.00,2930.34343,N,10634.36893,E,2,12,0.94,245.4,M,-26.5,M,,0000*69
$GNRMC,014423.00,A,2930.34347,N,10634.36892,E,0.254,353.65,020221,2.60,W,D*37
$GNGGA,014423.00,2930.34347,N,10634.36892,E,2,12,1.00,245.4,M,-26.5,M,,0000*61
$GNRMC,014424.00,A,2930.34360,N,10634.36890,E,0.562,350.32,020221,2.60,W,D*34
$GNGGA,014424.00,2930.34360,N,10634.36890,E,2,12,1.28,245.5,M,-26.5,M,,0000*6A
$GNRMC,014425.00,A,2930.34383,N,10634.36884,E,0.970,344.84,020221,2.60,W,D*3A
$GNGGA,014425.00,2930.34383,N,10634.36884,E,2,12,1.10,245.4,M,-26.5,M,,0000*69
$GNRMC,014426.00,A,2930.34416,N,10634.36871,E,1.527,339.66,020221,2.60,W,D*31
$GNGGA,014426.00,2930.34416,N,10634.36871,E,2,12,1.46,245.4,M,-26.5,M,,0000*68
$GNRMC,014427.00,A,2930.34470,N,10634.36843,E,2.677,336.19,020221,2.60,W,D*33
$GNGGA,014427.00,2930.34470,N,10634.36843,E,2,12,1.31,245.3,M,-26.5,M,,0000*6F
$GNRMC,014428.00,A,2930.34560,N,10634.36796,E,4.355,336.92,020221,2.60,W,D*3B
$GNGGA,014428.00,2930.34560,N,10634.36796,E,2,12,1.50,245.2,M,-26.5,M,,0000*61
$GNRMC,014429.00,A,2930.34692,N,10634.36738,E,5.689,342.31,020221,2.60,W,D*3F
$GNGGA,014429.00,2930.34692,N,10634.36738,E,2,12,1.61,245.1,M,-26.5,M,,0000*6B
$GNRMC,014430.00,A,2930.34861,N,10634.36688,E,6.647,348.01,020221,2.60,W,D*37
$GNGGA,014430.00,2930.34861,N,10634.36688,E,2,12,1.65,244.9,M,-26.5,M,,0000*66
$GNRMC,014431.00,A,2930.35051,N,10634.36642,E,7.257,348.68,020221,2.60,W,D*31
$GNGGA,014431.00,2930.35051,N,10634.36642,E,2,12,1.53,244.8,M,-26.5,M,,0000*6F
$GNRMC,014432.00,A,2930.35250,N,10634.36595,E,7.289,346.71,020221,2.60,W,D*3D
$GNGGA,014432.00,2930.35250,N,10634.36595,E,2,12,1.12,244.8,M,-26.5,M,,0000*63
$GNRMC,014433.00,A,2930.35444,N,10634.36538,E,7.083,343.08,020221,2.60,W,D*3B
$GNGGA,014433.00,2930.35444,N,10634.36538,E,2,12,1.25,245.0,M,-26.5,M,,0000*6B
$GNRMC,014434.00,A,2930.35633,N,10634.36478,E,6.912,339.12,020221,2.60,W,D*3D
$GNGGA,014434.00,2930.35633,N,10634.36478,E,2,12,1.27,245.2,M,-26.5,M,,0000*6B
$GNRMC,014435.00,A,2930.35817,N,10634.36388,E,7.621,336.91,020221,2.60,W,D*36
$GNGGA,014435.00,2930.35817,N,10634.36388,E,2,12,1.27,245.3,M,-26.5,M,,0000*6B
$GNRMC,014436.00,A,2930.36024,N,10634.36293,E,8.366,339.47,020221,2.60,W,D*38
$GNGGA,014436.00,2930.36024,N,10634.36293,E,2,12,1.11,245.1,M,-26.5,M,,0000*6F
$GNRMC,014437.00,A,2930.36251,N,10634.36204,E,8.787,342.33,020221,2.60,W,D*33
$GNGGA,014437.00,2930.36251,N,10634.36204,E,2,12,1.11,245.0,M,-26.5,M,,0000*61
$GNRMC,014438.00,A,2930.36491,N,10634.36113,E,9.329,341.54,020221,2.60,W,D*30
$GNGGA,014438.00,2930.36491,N,10634.36113,E,2,12,1.06,245.0,M,-26.5,M,,0000*67
$GNRMC,014439.00,A,2930.36745,N,10634.36013,E,9.969,337.67,020221,2.60,W,D*35
$GNGGA,014439.00,2930.36745,N,10634.36013,E,2,12,1.11,245.2,M,-26.5,M,,0000*69
$GNRMC,014440.00,A,2930.36996,N,10634.35871,E,10.133,331.41,020221,2.60,W,D*09
$GNGGA,014440.00,2930.36996,N,10634.35871,E,2,12,0.92,245.6,M,-26.5,M,,0000*66
$GNRMC,014441.00,A,2930.37237,N,10634.35694,E,10.546,323.09,020221,2.60,W,D*05
$GNGGA,014441.00,2930.37237,N,10634.35694,E,2,12,1.18,246.1,M,-26.5,M,,0000*64
$GNRMC,014442.00,A,2930.37472,N,10634.35483,E,10.972,318.24,020221,2.60,W,D*09
$GNGGA,014442.00,2930.37472,N,10634.35483,E,2,12,1.25,246.5,M,-26.5,M,,0000*6E
$GNRMC,014443.00,A,2930.37699,N,10634.35245,E,11.101,315.13,020221,2.60,W,D*07
$GNGGA,014443.00,2930.37699,N,10634.35245,E,2,12,1.28,246.9,M,-26.5,M,,0000*65
$GNRMC,014444.00,A,2930.37905,N,10634.34992,E,10.231,314.86,020221,2.60,W,D*06
$GNGGA,014444.00,2930.37905,N,10634.34992,E,2,12,1.25,247.3,M,-26.5,M,,0000*6E
$GNRMC,014445.00,A,2930.38093,N,10634.34786,E,8.454,317.69,020221,2.60,W,D*3B
$GNGGA,014445.00,2930.38093,N,10634.34786,E,2,12,1.29,247.6,M,-26.5,M,,0000*64
$GNRMC,014446.00,A,2930.38254,N,10634.34626,E,6.866,320.72,020221,2.60,W,D*37
$GNGGA,014446.00,2930.38254,N,10634.34626,E,2,12,1.25,247.8,M,-26.5,M,,0000*67
$GNRMC,014447.00,A,2930.38385,N,10634.34484,E,6.053,323.05,020221,2.60,W,D*3C
$GNGGA,014447.00,2930.38385,N,10634.34484,E,2,12,0.88,248.0,M,-26.5,M,,0000*60
$GNRMC,014448.00,A,2930.38522,N,10634.34371,E,5.973,326.09,020221,2.60,W,D*34
$GNGGA,014448.00,2930.38522,N,10634.34371,E,2,12,1.01,248.2,M,-26.5,M,,0000*6B
$GNRMC,014449.00,A,2930.38661,N,10634.34270,E,5.863,328.83,020221,2.60,W,D*3D
$GNGGA,014449.00,2930.38661,N,10634.34270,E,2,12,1.21,248.3,M,-26.5,M,,0000*6D
$GNRMC,014450.00,A,2930.38811,N,10634.34176,E,6.385,336.80,020221,2.60,W,D*35
$GNGGA,014450.00,2930.38811,N,10634.34176,E,2,12,0.98,248.3,M,-26.5,M,,0000*6A
$GNRMC,014451.00,A,2930.38977,N,10634.34112,E,6.243,349.05,020221,2.60,W,D*39
$GNGGA,014451.00,2930.38977,N,10634.34112,E,2,12,0.98,248.2,M,-26.5,M,,0000*69
$GNRMC,014452.00,A,2930.39157,N,10634.34103,E,6.447,0.92,020221,2.60,W,D*33
$GNGGA,014452.00,2930.39157,N,10634.34103,E,2,12,1.26,248.0,M,-26.5,M,,0000*67
$GNRMC,014453.00,A,2930.39337,N,10634.34117,E,6.728,6.81,020221,2.60,W,D*3D
$GNGGA,014453.00,2930.39337,N,10634.34117,E,2,12,1.00,247.8,M,-26.5,M,,0000*64
$GNRMC,014454.00,A,2930.39532,N,10634.34153,E,7.152,6.41,020221,2.60,W,D*3F
$GNGGA,014454.00,2930.39532,N,10634.34153,E,2,12,0.96,247.7,M,-26.5,M,,0000*61
$GNRMC,014455.00,A,2930.39732,N,10634.34158,E,7.509,1.83,020221,2.60,W,D*34
$GNGGA,014455.00,2930.39732,N,10634.34158,E,2,12,1.12,247.7,M,-26.5,M,,0000*64
$GNRMC,014456.00,A,2930.39942,N,10634.34148,E,7.753,355.05,020221,2.60,W,D*3E
$GNGGA,014456.00,2930.39942,N,10634.34148,E,2,12,1.00,247.6,M,-26.5,M,,0000*6D
$GNRMC,014457.00,A,2930.40164,N,10634.34122,E,8.089,349.58,020221,2.60,W,D*3B
$GNGGA,014457.00,2930.40164,N,10634.34122,E,2,11,1.00,247.6,M,-26.5,M,,0000*61
$GNRMC,014458.00,A,2930.40384,N,10634.34078,E,7.762,347.83,020221,2.60,W,D*33
$GNGGA,014458.00,2930.40384,N,10634.34078,E,2,10,1.21,247.5,M,-26.5,M,,0000*6D
$GNRMC,014459.00,A,2930.40593,N,10634.34048,E,7.281,349.15,020221,2.60,W,D*38
$GNGGA,014459.00,2930.40593,N,10634.34048,E,2,11,1.03,247.4,M,-26.5,M,,0000*6F
$GNRMC,014500.00,A,2930.40794,N,10634.34008,E,7.286,349.88,020221,2.60,W,D*37
$GNGGA,014500.00,2930.40794,N,10634.34008,E,2,10,1.03,247.2,M,-26.5,M,,0000*64
$GNRMC,014501.00,A,2930.40987,N,10634.33964,E,6.915,350.14,020221,2.60,W,D*33
$GNGGA,014501.00,2930.40987,N,10634.33964,E,2,11,1.03,246.9,M,-26.5,M,,0000*66
$GNRMC,014502.00,A,2930.41154,N,10634.33894,E,6.286,355.18,020221,2.60,W,D*31
$GNGGA,014502.00,2930.41154,N,10634.33894,E,2,11,1.00,246.6,M,-26.5,M,,0000*60
$GNRMC,014503.00,A,2930.41323,N,10634.33889,E,6.186,8.60,020221,2.60,W,D*39
$GNGGA,014503.00,2930.41323,N,10634.33889,E,2,11,1.03,246.3,M,-26.5,M,,0000*69
$GNRMC,014504.00,A,2930.41482,N,10634.33948,E,6.103,31.24,020221,2.60,W,D*09
$GNGGA,014504.00,2930.41482,N,10634.33948,E,2,12,1.00,245.8,M,-26.5,M,,0000*66
$GNRMC,014505.00,A,2930.41602,N,10634.34091,E,5.760,53.95,020221,2.60,W,D*06
$GNGGA,014505.00,2930.41602,N,10634.34091,E,2,12,1.16,245.3,M,-26.5,M,,0000*6B
$GNRMC,014506.00,A,2930.41687,N,10634.34257,E,5.604,61.48,020221,2.60,W,D*02
$GNGGA,014506.00,2930.41687,N,10634.34257,E,2,12,1.03,244.8,M,-26.5,M,,0000*63
$GNRMC,014507.00,A,2930.41767,N,10634.34393,E,5.558,53.34,020221,2.60,W,D*05
$GNGGA,014507.00,2930.41767,N,10634.34393,E,2,12,0.97,244.4,M,-26.5,M,,0000*64
$GNRMC,014508.00,A,2930.41878,N,10634.34493,E,5.754,32.60,020221,2.60,W,D*04
$GNGGA,014508.00,2930.41878,N,10634.34493,E,2,12,1.00,244.1,M,-26.5,M,,0000*67
$GNRMC,014509.00,A,2930.42048,N,10634.34588,E,7.083,10.28,020221,2.60,W,D*05
$GNGGA,014509.00,2930.42048,N,10634.34588,E,2,12,0.96,243.7,M,-26.5,M,,0000*6A
$GNRMC,014510.00,A,2930.42252,N,10634.34605,E,7.523,358.28,020221,2.60,W,D*32
$GNGGA,014510.00,2930.42252,N,10634.34605,E,2,12,0.91,243.1,M,-26.5,M,,0000*6C
$GNRMC,014511.00,A,2930.42456,N,10634.34603,E,6.897,353.65,020221,2.60,W,D*36
$GNGGA,014511.00,2930.42456,N,10634.34603,E,2,12,0.95,242.8,M,-26.5,M,,0000*65
$GNRMC,014512.00,A,2930.42640,N,10634.34584,E,6.316,353.70,020221,2.60,W,D*3A
$GNGGA,014512.00,2930.42640,N,10634.34584,E,2,12,0.89,242.6,M,-26.5,M,,0000*6C
$GNRMC,014513.00,A,2930.42801,N,10634.34569,E,5.180,353.64,020221,2.60,W,D*38
$GNGGA,014513.00,2930.42801,N,10634.34569,E,2,12,1.11,242.5,M,-26.5,M,,0000*66
$GNRMC,014514.00,A,2930.42921,N,10634.34547,E,3.494,352.97,020221,2.60,W,D*3B
$GNGGA,014514.00,2930.42921,N,10634.34547,E,2,12,0.89,242.4,M,-26.5,M,,0000*6F
$GNRMC,014515.00,A,2930.42994,N,10634.34535,E,1.934,352.56,020221,2.60,W,D*39
$GNGGA,014515.00,2930.42994,N,10634.34535,E,2,12,0.89,242.4,M,-26.5,M,,0000*65
$GNRMC,014516.00,A,2930.43032,N,10634.34530,E,0.830,352.30,020221,2.60,W,D*3F
$GNGGA,014516.00,2930.43032,N,10634.34530,E,2,12,1.06,242.4,M,-26.5,M,,0000*61
$GNRMC,014517.00,A,2930.43063,N,10634.34527,E,1.652,351.95,020221,2.60,W,D*3B
$GNGGA,014517.00,2930.43063,N,10634.34527,E,2,12,1.06,242.4,M,-26.5,M,,0000*62
$GNRMC,014518.00,A,2930.43129,N,10634.34513,E,2.939,350.35,020221,2.60,W,D*36
$GNGGA,014518.00,2930.43129,N,10634.34513,E,2,12,1.06,242.3,M,-26.5,M,,0000*62
$GNRMC,014519.00,A,2930.43210,N,10634.34504,E,2.766,348.16,020221,2.60,W,D*34
$GNGGA,014519.00,2930.43210,N,10634.34504,E,2,12,0.91,242.2,M,-26.5,M,,0000*62
$GNRMC,014520.00,A,2930.43296,N,10634.34488,E,3.517,345.29,020221,2.60,W,D*31
$GNGGA,014520.00,2930.43296,N,10634.34488,E,2,12,0.96,242.1,M,-26.5,M,,0000*67
$GNRMC,014521.00,A,2930.43393,N,10634.34459,E,3.661,341.79,020221,2.60,W,D*3B
$GNGGA,014521.00,2930.43393,N,10634.34459,E,2,12,1.08,242.0,M,-26.5,M,,0000*69
$GNRMC,014522.00,A,2930.43492,N,10634.34427,E,3.844,338.26,020221,2.60,W,D*3A
$GNGGA,014522.00,2930.43492,N,10634.34427,E,2,12,0.92,241.9,M,-26.5,M,,0000*6D
$GNRMC,014523.00,A,2930.43598,N,10634.34376,E,4.351,334.40,020221,2.60,W,D*37
$GNGGA,014523.00,2930.43598,N,10634.34376,E,2,12,0.95,241.8,M,-26.5,M,,0000*62
$GNRMC,014524.00,A,2930.43713,N,10634.34313,E,4.764,330.79,020221,2.60,W,D*3E
$GNGGA,014524.00,2930.43713,N,10634.34313,E,2,12,0.92,241.7,M,-26.5,M,,0000*6F
$GNRMC,014525.00,A,2930.43836,N,10634.34247,E,5.187,327.69,020221,2.60,W,D*3A
$GNGGA,014525.00,2930.43836,N,10634.34247,E,2,12,0.92,241.7,M,-26.5,M,,0000*66
$GNRMC,014526.00,A,2930.43966,N,10634.34152,E,5.943,323.98,020221,2.60,W,D*30
$GNGGA,014526.00,2930.43966,N,10634.34152,E,2,12,0.92,241.6,M,-26.5,M,,0000*67
$GNRMC,014527.00,A,2930.44102,N,10634.34033,E,6.032,319.33,020221,2.60,W,D*3E
$GNGGA,014527.00,2930.44102,N,10634.34033,E,2,12,0.99,241.6,M,-26.5,M,,0000*66
$GNRMC,014528.00,A,2930.44226,N,10634.33917,E,5.803,311.88,020221,2.60,W,D*3D
$GNGGA,014528.00,2930.44226,N,10634.33917,E,2,12,0.89,241.6,M,-26.5,M,,0000*65
$GNRMC,014529.00,A,2930.44329,N,10634.33761,E,6.524,299.44,020221,2.60,W,D*37
$GNGGA,014529.00,2930.44329,N,10634.33761,E,2,12,0.89,241.5,M,-26.5,M,,0000*66
$GNRMC,014530.00,A,2930.44406,N,10634.33555,E,8.011,283.64,020221,2.60,W,D*34
$GNGGA,014530.00,2930.44406,N,10634.33555,E,2,12,0.89,241.5,M,-26.5,M,,0000*61
$GNRMC,014531.00,A,2930.44444,N,10634.33282,E,9.708,273.52,020221,2.60,W,D*3A
$GNGGA,014531.00,2930.44444,N,10634.33282,E,2,12,0.89,241.4,M,-26.5,M,,0000*6A
$GNRMC,014532.00,A,2930.44449,N,10634.32957,E,10.479,270.44,020221,2.60,W,D*0F
$GNGGA,014532.00,2930.44449,N,10634.32957,E,2,12,0.89,241.3,M,-26.5,M,,0000*61
$GNRMC,014533.00,A,2930.44447,N,10634.32609,E,11.043,269.84,020221,2.60,W,D*0C
$GNGGA,014533.00,2930.44447,N,10634.32609,E,2,12,0.89,241.1,M,-26.5,M,,0000*68
$GNRMC,014534.00,A,2930.44448,N,10634.32252,E,11.200,270.57,020221,2.60,W,D*0D
$GNGGA,014534.00,2930.44448,N,10634.32252,E,2,12,0.89,240.8,M,-26.5,M,,0000*62
$GNRMC,014535.00,A,2930.44453,N,10634.31900,E,10.779,271.13,020221,2.60,W,D*02
$GNGGA,014535.00,2930.44453,N,10634.31900,E,2,12,0.89,240.7,M,-26.5,M,,0000*69
$GNRMC,014536.00,A,2930.44456,N,10634.31562,E,10.254,270.47,020221,2.60,W,D*06
$GNGGA,014536.00,2930.44456,N,10634.31562,E,2,12,0.91,240.7,M,-26.5,M,,0000*6E
$GNRMC,014537.00,A,2930.44457,N,10634.31250,E,9.350,269.96,020221,2.60,W,D*39
$GNGGA,014537.00,2930.44457,N,10634.31250,E,2,12,0.94,240.8,M,-26.5,M,,0000*62
$GNRMC,014538.00,A,2930.44458,N,10634.30974,E,7.971,270.02,020221,2.60,W,D*37
$GNGGA,014538.00,2930.44458,N,10634.30974,E,2,12,0.94,240.9,M,-26.5,M,,0000*6F
$GNRMC,014539.00,A,2930.44460,N,10634.30759,E,5.654,270.07,020221,2.60,W,D*33
$GNGGA,014539.00,2930.44460,N,10634.30759,E,2,12,0.91,241.0,M,-26.5,M,,0000*69
$GNRMC,014540.00,A,2930.44462,N,10634.30628,E,2.936,270.09,020221,2.60,W,D*3A
$GNGGA,014540.00,2930.44462,N,10634.30628,E,2,12,0.94,241.2,M,-26.5,M,,0000*65
$GNRMC,014541.00,A,2930.44464,N,10634.30548,E,2.583,270.09,020221,2.60,W,D*3A
$GNGGA,014541.00,2930.44464,N,10634.30548,E,2,12,0.92,241.3,M,-26.5,M,,0000*60
$GNRMC,014542.00,A,2930.44467,N,10634.30464,E,2.947,269.93,020221,2.60,W,D*3A
$GNGGA,014542.00,2930.44467,N,10634.30464,E,2,12,0.94,241.3,M,-26.5,M,,0000*69
$GNRMC,014543.00,A,2930.44469,N,10634.30382,E,2.626,269.65,020221,2.60,W,D*3B
$GNGGA,014543.00,2930.44469,N,10634.30382,E,2,12,0.94,241.4,M,-26.5,M,,0000*6E
$GNRMC,014544.00,A,2930.44469,N,10634.30321,E,1.288,269.39,020221,2.60,W,D*3F
$GNGGA,014544.00,2930.44469,N,10634.30321,E,2,12,0.94,241.5,M,-26.5,M,,0000*61
$GNRMC,014545.00,A,2930.44471,N,10634.30312,E,0.008,269.36,020221,2.60,W,D*33
$GNGGA,014545.00,2930.44471,N,10634.30312,E,2,12,0.92,241.5,M,-26.5,M,,0000*6F
$GNRMC,014546.00,A,2930.44472,N,10634.30316,E,0.000,269.35,020221,2.60,W,D*3C
$GNGGA,014546.00,2930.44472,N,10634.30316,E,2,12,0.89,241.5,M,-26.5,M,,0000*61
$GNRMC,014547.00,A,2930.44473,N,10634.30319,E,0.001,269.35,020221,2.60,W,D*32
$GNGGA,014547.00,2930.44473,N,10634.30319,E,2,12,0.89,241.6,M,-26.5,M,,0000*6D
$GNRMC,014548.00,A,2930.44474,N,10634.30323,E,0.000,269.35,020221,2.60,W,D*32
$GNGGA,014548.00,2930.44474,N,10634.30323,E,2,12,0.89,241.6,M,-26.5,M,,0000*6C
$GNRMC,014549.00,A,2930.44475,N,10634.30326,E,0.002,269.35,020221,2.60,W,D*35
$GNGGA,014549.00,2930.44475,N,10634.30326,E,2,12,0.89,241.6,M,-26.5,M,,0000*69
$GNRMC,014550.00,A,2930.44476,N,10634.30329,E,0.000,269.35,020221,2.60,W,D*33
$GNGGA,014550.00,2930.44476,N,10634.30329,E,2,12,0.89,241.7,M,-26.5,M,,0000*6C
$GNRMC,014551.00,A,2930.44476,N,10634.30332,E,0.006,269.35,020221,2.60,W,D*3E
$GNGGA,014551.00,2930.44476,N,10634.30332,E,2,12,0.89,241.7,M,-26.5,M,,0000*67
$GNRMC,014552.00,A,2930.44477,N,10634.30336,E,0.000,269.35,020221,2.60,W,D*3E
$GNGGA,014552.00,2930.44477,N,10634.30336,E,2,12,0.89,241.7,M,-26.5,M,,0000*61
$GNRMC,014553.00,A,2930.44477,N,10634.30336,E,0.000,269.35,020221,2.60,W,D*3F
$GNGGA,014553.00,2930.44477,N,10634.30336,E,2,12,0.89,241.7,M,-26.5,M,,0000*60
$GNRMC,014554.00,A,2930.44478,N,10634.30339,E,0.001,269.34,020221,2.60,W,D*38
$GNGGA,014554.00,2930.44478,N,10634.30339,E,2,12,0.89,241.7,M,-26.5,M,,0000*67
$GNRMC,014555.00,A,2930.44479,N,10634.30342,E,0.006,269.34,020221,2.60,W,D*33
$GNGGA,014555.00,2930.44479,N,10634.30342,E,2,12,0.89,241.7,M,-26.5,M,,0000*6B
$GNRMC,014556.00,A,2930.44480,N,10634.30345,E,0.000,269.34,020221,2.60,W,D*37
$GNGGA,014556.00,2930.44480,N,10634.30345,E,2,12,0.89,241.7,M,-26.5,M,,0000*69
$GNRMC,014557.00,A,2930.44481,N,10634.30347,E,0.002,269.34,020221,2.60,W,D*37
$GNGGA,014557.00,2930.44481,N,10634.30347,E,2,12,0.92,241.6,M,-26.5,M,,0000*60
$GNRMC,014558.00,A,2930.44482,N,10634.30350,E,0.000,269.33,020221,2.60,W,D*38
$GNGGA,014558.00,2930.44482,N,10634.30350,E,2,12,0.92,241.6,M,-26.5,M,,0000*6A
$GNRMC,014559.00,A,2930.44482,N,10634.30350,E,0.000,269.33,020221,2.60,W,D*39
$GNGGA,014559.00,2930.44482,N,10634.30350,E,2,12,0.92,241.6,M,-26.5,M,,0000*6B
$GNRMC,014600.00,A,2930.44482,N,10634.30350,E,0.000,269.33,020221,2.60,W,D*36
$GNGGA,014600.00,2930.44482,N,10634.30350,E,2,12,0.92,241.6,M,-26.5,M,,0000*64
$GNRMC,014601.00,A,2930.44482,N,10634.30350,E,0.000,269.33,020221,2.60,W,D*37
$GNGGA,014601.00,2930.44482,N,10634.30350,E,2,12,0.92,241.6,M,-26.5,M,,0000*65
$GNRMC,014602.00,A,2930.44482,N,10634.30350,E,0.000,269.33,020221,2.60,W,D*34
$GNGGA,014602.00,2930.44482,N,10634.30350,E,2,12,0.92,241.6,M,-26.5,M,,0000*66
$GNRMC,014603.00,A,2930.44482,N,10634.30350,E,0.000,269.33,020221,2.60,W,D*35
$GNGGA,014603.00,2930.44482,N,10634.30350,E,2,12,0.92,241.6,M,-26.5,M,,0000*67
$GNRMC,014604.00,A,2930.44482,N,10634.30351,E,0.002,269.33,020221,2.60,W,D*31
$GNGGA,014604.00,2930.44482,N,10634.30351,E,2,12,0.92,241.6,M,-26.5,M,,0000*61
$GNRMC,014605.00,A,2930.44483,N,10634.30353,E,0.000,269.33,020221,2.60,W,D*31
$GNGGA,014605.00,2930.44483,N,10634.30353,E,2,12,0.92,241.6,M,-26.5,M,,0000*63
$GNRMC,014606.00,A,2930.44483,N,10634.30353,E,0.000,269.33,020221,2.60,W,D*32
$GNGGA,014606.00,2930.44483,N,10634.30353,E,2,12,0.92,241.6,M,-26.5,M,,0000*60
$GNRMC,014607.00,A,2930.44483,N,10634.30353,E,0.000,269.33,020221,2.60,W,D*33
$GNGGA,014607.00,2930.44483,N,10634.30353,E,2,12,0.92,241.6,M,-26.5,M,,0000*61
$GNRMC,014608.00,A,2930.44483,N,10634.30353,E,0.000,269.33,020221,2.60,W,D*3C
$GNGGA,014608.00,2930.44483,N,10634.30353,E,2,12,0.92,241.6,M,-26.5,M,,0000*6E
$GNRMC,014609.00,A,2930.44483,N,10634.30353,E,0.000,269.33,020221,2.60,W,D*3D
$GNGGA,014609.00,2930.44483,N,10634.30353,E,2,12,0.92,241.6,M,-26.5,M,,0000*6F
$GNRMC,014610.00,A,2930.44483,N,10634.30353,E,0.000,269.33,020221,2.60,W,D*35
$GNGGA,014610.00,2930.44483,N,10634.30353,E,2,12,0.92,241.6,M,-26.5,M,,0000*67
$GNRMC,014611.00,A,2930.44483,N,10634.30353,E,0.000,269.33,020221,2.60,W,D*34
$GNGGA,014611.00,2930.44483,N,10634.30353,E,2,12,0.92,241.6,M,-26.5,M,,0000*66
$GNRMC,014612.00,A,2930.44483,N,10634.30353,E,0.000,269.33,020221,2.60,W,D*37
$GNGGA,014612.00,2930.44483,N,10634.30353,E,2,12,0.89,241.6,M,-26.5,M,,0000*6F
$GNRMC,014613.00,A,2930.44483,N,10634.30353,E,0.000,269.33,020221,2.60,W,D*36
$GNGGA,014613.00,2930.44483,N,10634.30353,E,2,12,0.89,241.6,M,-26.5,M,,0000*6E
$GNRMC,014614.00,A,2930.44483,N,10634.30353,E,0.000,269.33,020221,2.60,W,D*31
$GNGGA,014614.00,2930.44483,N,10634.30353,E,2,12,0.89,241.6,M,-26.5,M,,0000*69
$GNRMC,014615.00,A,2930.44483,N,10634.30353,E,0.000,269.33,020221,2.60,W,D*30
$GNGGA,014615.00,2930.44483,N,10634.30353,E,2,12,0.89,241.6,M,-26.5,M,,0000*68
$GNRMC,014616.00,A,2930.44483,N,10634.30353,E,0.000,269.33,020221,2.60,W,D*33
$GNGGA,014616.00,2930.44483,N,10634.30353,E,2,12,0.89,241.6,M,-26.5,M,,0000*6B
$GNRMC,014617.00,A,2930.44483,N,10634.30353,E,0.000,269.33,020221,2.60,W,D*32
$GNGGA,014617.00,2930.44483,N,10634.30353,E,2,12,0.89,241.6,M,-26.5,M,,0000*6A
$GNRMC,014618.00,A,2930.44483,N,10634.30353,E,0.000,269.33,020221,2.60,W,D*3D
$GNGGA,014618.00,2930.44483,N,10634.30353,E,2,12,0.89,241.6,M,-26.5,M,,0000*65
$GNRMC,014619.00,A,2930.44483,N,10634.30353,E,0.000,269.33,020221,2.60,W,D*3C
$GNGGA,014619.00,2930.44483,N,10634.30353,E,2,12,0.89,241.6,M,-26.5,M,,0000*64
$GNRMC,014620.00,A,2930.44483,N,10634.30353,E,0.000,269.33,020221,2.60,W,D*36
$GNGGA,014620.00,2930.44483,N,10634.30353,E,2,12,0.89,241.6,M,-26.5,M,,0000*6E
$GNRMC,014621.00,A,2930.44483,N,10634.30353,E,0.000,269.33,020221,2.60,W,D*37
$GNGGA,014621.00,2930.44483,N,10634.30353,E,2,12,0.89,241.6,M,-26.5,M,,0000*6F
$GNRMC,014622.00,A,2930.44483,N,10634.30353,E,0.000,269.33,020221,2.60,W,D*34
$GNGGA,014622.00,2930.44483,N,10634.30353,E,2,12,0.89,241.6,M,-26.5,M,,0000*6C
$GNRMC,014623.00,A,2930.44483,N,10634.30353,E,0.000,269.33,020221,2.60,W,D*35
$GNGGA,014623.00,2930.44483,N,10634.30353,E,2,12,0.89,241.6,M,-26.5,M,,0000*6D
$GNRMC,014624.00,A,2930.44483,N,10634.30353,E,0.000,269.33,020221,2.60,W,D*32
$GNGGA,014624.00,2930.44483,N,10634.30353,E,2,12,0.89,241.6,M,-26.5,M,,0000*6A
$GNRMC,014625.00,A,2930.44483,N,10634.30353,E,0.000,269.33,020221,2.60,W,D*33
$GNGGA,014625.00,2930.44483,N,10634.30353,E,2,12,0.89,241.6,M,-26.5,M,,0000*6B
$GNRMC,014626.00,A,2930.44483,N,10634.30353,E,0.000,269.33,020221,2.60,W,D*30
$GNGGA,014626.00,2930.44483,N,10634.30353,E,2,12,0.89,241.6,M,-26.5,M,,0000*68
$GNRMC,014627.00,A,2930.44483,N,10634.30353,E,0.000,269.33,020221,2.60,W,D*31
$GNGGA,014627.00,2930.44483,N,10634.30353,E,2,12,0.89,241.6,M,-26.5,M,,0000*69
$GNRMC,014628.00,A,2930.44483,N,10634.30353,E,0.000,269.33,020221,2.60,W,D*3E
$GNGGA,014628.00,2930.44483,N,10634.30353,E,2,12,0.89,241.6,M,-26.5,M,,0000*66
$GNRMC,014629.00,A,2930.44483,N,10634.30353,E,0.000,269.33,020221,2.60,W,D*3F
$GNGGA,014629.00,2930.44483,N,10634.30353,E,2,12,0.89,241.6,M,-26.5,M,,0000*67
$GNRMC,014630.00,A,2930.44483,N,10634.30353,E,0.000,269.33,020221,2.60,W,D*37
$GNGGA,014630.00,2930.44483,N,10634.30353,E,2,12,0.89,241.6,M,-26.5,M,,0000*6F
$GNRMC,014631.00,A,2930.44483,N,10634.30353,E,0.000,269.33,020221,2.60,W,D*36
$GNGGA,014631.00,2930.44483,N,10634.30353,E,2,12,0.89,241.6,M,-26.5,M,,0000*6E
$GNRMC,014632.00,A,2930.44483,N,10634.30353,E,0.000,269.33,020221,2.60,W,D*35
$GNGGA,014632.00,2930.44483,N,10634.30353,E,2,12,0.89,241.6,M,-26.5,M,,0000*6D
$GNRMC,014633.00,A,2930.44483,N,10634.30353,E,0.000,269.33,020221,2.60,W,D*34
$GNGGA,014633.00,2930.44483,N,10634.30353,E,2,12,0.89,241.6,M,-26.5,M,,0000*6C
$GNRMC,014634.00,A,2930.44483,N,10634.30353,E,0.000,269.33,020221,2.60,W,D*33
$GNGGA,014634.00,2930.44483,N,10634.30353,E,2,12,0.89,241.6,M,-26.5,M,,0000*6B
$GNRMC,014635.00,A,2930.44483,N,10634.30353,E,0.000,269.33,020221,2.60,W,D*32
$GNGGA,014635.00,2930.44483,N,10634.30353,E,2,12,0.89,241.6,M,-26.5,M,,0000*6A
$GNRMC,014636.00,A,2930.44483,N,10634.30353,E,0.000,269.33,020221,2.60,W,D*31
$GNGGA,014636.00,2930.44483,N,10634.30353,E,2,12,0.89,241.6,M,-26.5,M,,0000*69
$GNRMC,014637.00,A,2930.44483,N,10634.30353,E,0.000,269.33,020221,2.60,W,D*30
$GNGGA,014637.00,2930.44483,N,10634.30353,E,2,12,0.89,241.6,M,-26.5,M,,0000*68
$GNRMC,014638.00,A,2930.44483,N,10634.30353,E,0.000,269.33,020221,2.60,W,D*3F
$GNGGA,014638.00,2930.44483,N,10634.30353,E,2,12,0.89,241.6,M,-26.5,M,,0000*67
$GNRMC,014639.00,A,2930.44483,N,10634.30353,E,0.000,269.33,020221,2.60,W,D*3E
$GNGGA,014639.00,2930.44483,N,10634.30353,E,2,12,0.89,241.6,M,-26.5,M,,0000*66
$GNRMC,014640.00,A,2930.44483,N,10634.30353,E,0.000,269.33,020221,2.60,W,D*30
$GNGGA,014640.00,2930.44483,N,10634.30353,E,2,12,0.89,241.6,M,-26.5,M,,0000*68
$GNRMC,014641.00,A,2930.44483,N,10634.30353,E,0.000,269.33,020221,2.60,W,D*31
$GNGGA,014641.00,2930.44483,N,10634.30353,E,2,12,0.89,241.6,M,-26.5,M,,0000*69
$GNRMC,014642.00,A,2930.44483,N,10634.30353,E,0.000,269.33,020221,2.60,W,D*32
$GNGGA,014642.00,2930.44483,N,10634.30353,E,2,12,0.89,241.6,M,-26.5,M,,0000*6A
$GNRMC,014643.00,A,2930.44483,N,10634.30353,E,0.000,269.33,020221,2.60,W,D*33
$GNGGA,014643.00,2930.44483,N,10634.30353,E,2,12,0.89,241.6,M,-26.5,M,,0000*6B
$GNRMC,014644.00,A,2930.44483,N,10634.30353,E,0.000,269.33,020221,2.60,W,D*34
$GNGGA,014644.00,2930.44483,N,10634.30353,E,2,12,0.89,241.6,M,-26.5,M,,0000*6C
$GNRMC,014645.00,A,2930.44483,N,10634.30353,E,0.000,269.33,020221,2.60,W,D*35
$GNGGA,014645.00,2930.44483,N,10634.30353,E,2,12,0.89,241.6,M,-26.5,M,,0000*6D
$GNRMC,014646.00,A,2930.44483,N,10634.30353,E,0.000,269.33,020221,2.60,W,D*36
$GNGGA,014646.00,2930.44483,N,10634.30353,E,2,12,0.89,241.6,M,-26.5,M,,0000*6E
$GNRMC,014647.00,A,2930.44483,N,10634.30353,E,0.000,269.33,020221,2.60,W,D*37
$GNGGA,014647.00,2930.44483,N,10634.30353,E,2,12,0.89,241.6,M,-26.5,M,,0000*6F
$GNRMC,014648.00,A,2930.44485,N,10634.30354,E,0.001,269.35,020221,2.60,W,D*3E
$GNGGA,014648.00,2930.44485,N,10634.30354,E,2,12,0.89,241.6,M,-26.5,M,,0000*61
$GNRMC,014649.00,A,2930.44487,N,10634.30355,E,0.000,269.35,020221,2.60,W,D*3D
$GNGGA,014649.00,2930.44487,N,10634.30355,E,2,12,0.89,241.7,M,-26.5,M,,0000*62
$GNRMC,014650.00,A,2930.44487,N,10634.30355,E,0.000,269.35,020221,2.60,W,D*35
$GNGGA,014650.00,2930.44487,N,10634.30355,E,2,12,0.89,241.7,M,-26.5,M,,0000*6A
$GNRMC,014651.00,A,2930.44487,N,10634.30355,E,0.000,269.35,020221,2.60,W,D*34
$GNGGA,014651.00,2930.44487,N,10634.30355,E,2,12,0.89,241.7,M,-26.5,M,,0000*6B
$GNRMC,014652.00,A,2930.44487,N,10634.30355,E,0.000,269.35,020221,2.60,W,D*37
$GNGGA,014652.00,2930.44487,N,10634.30355,E,2,12,0.89,241.7,M,-26.5,M,,0000*68
$GNRMC,014653.00,A,2930.44487,N,10634.30355,E,0.000,269.35,020221,2.60,W,D*36
$GNGGA,014653.00,2930.44487,N,10634.30355,E,2,12,0.89,241.7,M,-26.5,M,,0000*69
$GNRMC,014654.00,A,2930.44487,N,10634.30355,E,0.000,269.35,020221,2.60,W,D*31
$GNGGA,014654.00,2930.44487,N,10634.30355,E,2,12,0.89,241.7,M,-26.5,M,,0000*6E
$GNRMC,014655.00,A,2930.44487,N,10634.30355,E,0.000,269.35,020221,2.60,W,D*30
$GNGGA,014655.00,2930.44487,N,10634.30355,E,2,12,0.89,241.7,M,-26.5,M,,0000*6F
$GNRMC,014656.00,A,2930.44487,N,10634.30355,E,0.000,269.35,020221,2.60,W,D*33
$GNGGA,014656.00,2930.44487,N,10634.30355,E,2,12,0.89,241.7,M,-26.5,M,,0000*6C
$GNRMC,014657.00,A,2930.44487,N,10634.30355,E,0.000,269.35,020221,2.60,W,D*32
$GNGGA,014657.00,2930.44487,N,10634.30355,E,2,12,0.89,241.7,M,-26.5,M,,0000*6D
$GNRMC,014658.00,A,2930.44487,N,10634.30355,E,0.000,269.35,020221,2.60,W,D*3D
$GNGGA,014658.00,2930.44487,N,10634.30355,E,2,12,0.89,241.7,M,-26.5,M,,0000*62
$GNRMC,014659.00,A,2930.44487,N,10634.30357,E,0.000,269.35,020221,2.60,W,D*3E
$GNGGA,014659.00,2930.44487,N,10634.30357,E,2,12,0.89,241.7,M,-26.5,M,,0000*61
$GNRMC,014700.00,A,2930.44488,N,10634.30358,E,0.000,269.34,020221,2.60,W,D*32
$GNGGA,014700.00,2930.44488,N,10634.30358,E,2,12,0.89,241.8,M,-26.5,M,,0000*63
$GNRMC,014701.00,A,2930.44488,N,10634.30358,E,0.000,269.34,020221,2.60,W,D*33
$GNGGA,014701.00,2930.44488,N,10634.30358,E,2,12,0.89,241.8,M,-26.5,M,,0000*62
$GNRMC,014702.00,A,2930.44488,N,10634.30359,E,0.006,269.34,020221,2.60,W,D*37
$GNGGA,014702.00,2930.44488,N,10634.30359,E,2,12,0.89,241.8,M,-26.5,M,,0000*60
$GNRMC,014703.00,A,2930.44489,N,10634.30361,E,0.000,269.36,020221,2.60,W,D*38
$GNGGA,014703.00,2930.44489,N,10634.30361,E,2,12,0.89,241.9,M,-26.5,M,,0000*6A
$GNRMC,014704.00,A,2930.44489,N,10634.30361,E,0.000,269.36,020221,2.60,W,D*3F
$GNGGA,014704.00,2930.44489,N,10634.30361,E,2,12,0.89,241.9,M,-26.5,M,,0000*6D
$GNRMC,014705.00,A,2930.44489,N,10634.30361,E,0.000,269.36,020221,2.60,W,D*3E
$GNGGA,014705.00,2930.44489,N,10634.30361,E,2,12,0.89,241.9,M,-26.5,M,,0000*6C
$GNRMC,014706.00,A,2930.44489,N,10634.30361,E,0.000,269.36,020221,2.60,W,D*3D
$GNGGA,014706.00,2930.44489,N,10634.30361,E,2,12,0.89,241.9,M,-26.5,M,,0000*6F
$GNRMC,014707.00,A,2930.44489,N,10634.30361,E,0.000,269.36,020221,2.60,W,D*3C
$GNGGA,014707.00,2930.44489,N,10634.30361,E,2,12,0.89,241.9,M,-26.5,M,,0000*6E
$GNRMC,014708.00,A,2930.44489,N,10634.30361,E,0.000,269.36,020221,2.60,W,D*33
$GNGGA,014708.00,2930.44489,N,10634.30361,E,2,12,0.89,241.9,M,-26.5,M,,0000*61
$GNRMC,014709.00,A,2930.44489,N,10634.30361,E,0.000,269.36,020221,2.60,W,D*32
$GNGGA,014709.00,2930.44489,N,10634.30361,E,2,12,0.89,241.9,M,-26.5,M,,0000*60
$GNRMC,014710.00,A,2930.44489,N,10634.30355,E,0.623,269.18,020221,2.60,W,D*36
$GNGGA,014710.00,2930.44489,N,10634.30355,E,2,12,0.89,241.9,M,-26.5,M,,0000*6F
$GNRMC,014711.00,A,2930.44489,N,10634.30321,E,1.545,267.34,020221,2.60,W,D*36
$GNGGA,014711.00,2930.44489,N,10634.30321,E,2,12,0.92,241.9,M,-26.5,M,,0000*67
$GNRMC,014712.00,A,2930.44487,N,10634.30261,E,2.207,264.90,020221,2.60,W,D*31
$GNGGA,014712.00,2930.44487,N,10634.30261,E,2,12,0.89,241.8,M,-26.5,M,,0000*64
$GNRMC,014713.00,A,2930.44482,N,10634.30179,E,2.907,264.39,020221,2.60,W,D*37
$GNGGA,014713.00,2930.44482,N,10634.30179,E,2,12,0.89,241.8,M,-26.5,M,,0000*6A
$GNRMC,014714.00,A,2930.44477,N,10634.30069,E,4.064,266.36,020221,2.60,W,D*3D
$GNGGA,014714.00,2930.44477,N,10634.30069,E,2,12,0.89,241.6,M,-26.5,M,,0000*69
$GNRMC,014715.00,A,2930.44475,N,10634.29907,E,5.983,269.00,020221,2.60,W,D*3C
$GNGGA,014715.00,2930.44475,N,10634.29907,E,2,12,0.89,241.4,M,-26.5,M,,0000*61
$GNRMC,014716.00,A,2930.44475,N,10634.29683,E,7.988,270.27,020221,2.60,W,D*38
$GNGGA,014716.00,2930.44475,N,10634.29683,E,2,12,0.89,241.1,M,-26.5,M,,0000*64
$GNRMC,014717.00,A,2930.44481,N,10634.29407,E,9.171,271.34,020221,2.60,W,D*3F
$GNGGA,014717.00,2930.44481,N,10634.29407,E,2,12,0.95,240.7,M,-26.5,M,,0000*6A
$GNRMC,014718.00,A,2930.44487,N,10634.29118,E,8.684,271.32,020221,2.60,W,D*37
$GNGGA,014718.00,2930.44487,N,10634.29118,E,2,12,0.95,240.4,M,-26.5,M,,0000*6B
$GNRMC,014719.00,A,2930.44494,N,10634.28870,E,6.861,271.04,020221,2.60,W,D*3C
$GNGGA,014719.00,2930.44494,N,10634.28870,E,2,12,0.95,240.4,M,-26.5,M,,0000*6E
$GNRMC,014720.00,A,2930.44503,N,10634.28678,E,5.033,271.08,020221,2.60,W,D*3F
$GNGGA,014720.00,2930.44503,N,10634.28678,E,2,12,1.25,240.4,M,-26.5,M,,0000*67
$GNRMC,014721.00,A,2930.44507,N,10634.28540,E,3.550,270.79,020221,2.60,W,D*33
$GNGGA,014721.00,2930.44507,N,10634.28540,E,2,12,1.07,240.4,M,-26.5,M,,0000*6A
$GNRMC,014722.00,A,2930.44512,N,10634.28440,E,2.941,270.75,020221,2.60,W,D*34
$GNGGA,014722.00,2930.44512,N,10634.28440,E,2,12,0.92,240.5,M,-26.5,M,,0000*60
$GNRMC,014723.00,A,2930.44513,N,10634.28349,E,2.591,270.78,020221,2.60,W,D*36
$GNGGA,014723.00,2930.44513,N,10634.28349,E,2,12,0.92,240.4,M,-26.5,M,,0000*6F
$GNRMC,014724.00,A,2930.44514,N,10634.28267,E,2.438,270.92,020221,2.60,W,D*3D
$GNGGA,014724.00,2930.44514,N,10634.28267,E,2,12,0.94,240.4,M,-26.5,M,,0000*64
$GNRMC,014725.00,A,2930.44510,N,10634.28185,E,2.847,270.90,020221,2.60,W,D*31
$GNGGA,014725.00,2930.44510,N,10634.28185,E,2,12,0.94,240.4,M,-26.5,M,,0000*6E
$GNRMC,014726.00,A,2930.44510,N,10634.28073,E,4.279,270.67,020221,2.60,W,D*33
$GNGGA,014726.00,2930.44510,N,10634.28073,E,2,12,1.25,240.2,M,-26.5,M,,0000*68
$GNRMC,014727.00,A,2930.44514,N,10634.27898,E,6.663,270.26,020221,2.60,W,D*3C
$GNGGA,014727.00,2930.44514,N,10634.27898,E,2,12,1.12,240.0,M,-26.5,M,,0000*69
$GNRMC,014728.00,A,2930.44514,N,10634.27649,E,8.914,271.41,020221,2.60,W,D*30
$GNGGA,014728.00,2930.44514,N,10634.27649,E,2,12,1.07,239.6,M,-26.5,M,,0000*68
$GNRMC,014729.00,A,2930.44529,N,10634.27334,E,11.010,275.45,020221,2.60,W,D*05
$GNGGA,014729.00,2930.44529,N,10634.27334,E,2,12,1.24,239.0,M,-26.5,M,,0000*6F
$GNRMC,014730.00,A,2930.44569,N,10634.26956,E,12.896,278.34,020221,2.60,W,D*08
$GNGGA,014730.00,2930.44569,N,10634.26956,E,2,12,0.95,238.2,M,-26.5,M,,0000*64
$GNRMC,014731.00,A,2930.44628,N,10634.26541,E,13.228,277.97,020221,2.60,W,D*0D
$GNGGA,014731.00,2930.44628,N,10634.26541,E,2,12,0.87,237.7,M,-26.5,M,,0000*60
$GNRMC,014732.00,A,2930.44664,N,10634.26125,E,13.085,274.34,020221,2.60,W,D*0F
$GNGGA,014732.00,2930.44664,N,10634.26125,E,2,12,0.79,237.7,M,-26.5,M,,0000*6C
$GNRMC,014733.00,A,2930.44680,N,10634.25719,E,12.270,271.69,020221,2.60,W,D*0A
$GNGGA,014733.00,2930.44680,N,10634.25719,E,2,12,0.90,237.9,M,-26.5,M,,0000*64
$GNRMC,014734.00,A,2930.44676,N,10634.25340,E,11.470,268.50,020221,2.60,W,D*0B
$GNGGA,014734.00,2930.44676,N,10634.25340,E,2,12,0.83,238.2,M,-26.5,M,,0000*64
$GNRMC,014735.00,A,2930.44666,N,10634.25001,E,9.989,267.30,020221,2.60,W,D*36
$GNGGA,014735.00,2930.44666,N,10634.25001,E,2,12,0.78,238.5,M,-26.5,M,,0000*61
$GNRMC,014736.00,A,2930.44659,N,10634.24703,E,8.632,269.79,020221,2.60,W,D*30
$GNGGA,014736.00,2930.44659,N,10634.24703,E,2,12,0.78,238.6,M,-26.5,M,,0000*69
$GNRMC,014737.00,A,2930.44667,N,10634.24456,E,6.981,275.30,020221,2.60,W,D*36
$GNGGA,014737.00,2930.44667,N,10634.24456,E,2,12,0.90,238.6,M,-26.5,M,,0000*60
$GNRMC,014738.00,A,2930.44697,N,10634.24267,E,5.271,281.64,020221,2.60,W,D*3F
$GNGGA,014738.00,2930.44697,N,10634.24267,E,2,12,1.08,238.5,M,-26.5,M,,0000*67
$GNRMC,014739.00,A,2930.44727,N,10634.24131,E,3.519,286.56,020221,2.60,W,D*3D
$GNGGA,014739.00,2930.44727,N,10634.24131,E,2,12,0.90,238.6,M,-26.5,M,,0000*6F
$GNRMC,014740.00,A,2930.44756,N,10634.24035,E,2.851,289.91,020221,2.60,W,D*34
$GNGGA,014740.00,2930.44756,N,10634.24035,E,2,12,0.90,238.7,M,-26.5,M,,0000*63
$GNRMC,014741.00,A,2930.44785,N,10634.23954,E,2.578,293.26,020221,2.60,W,D*33
$GNGGA,014741.00,2930.44785,N,10634.23954,E,2,12,1.08,238.7,M,-26.5,M,,0000*65
$GNRMC,014742.00,A,2930.44815,N,10634.23886,E,2.048,296.35,020221,2.60,W,D*39
$GNGGA,014742.00,2930.44815,N,10634.23886,E,2,12,1.08,238.7,M,-26.5,M,,0000*6E
$GNRMC,014743.00,A,2930.44840,N,10634.23835,E,1.614,298.71,020221,2.60,W,D*32
$GNGGA,014743.00,2930.44840,N,10634.23835,E,2,12,0.92,238.8,M,-26.5,M,,0000*6A
$GNRMC,014744.00,A,2930.44865,N,10634.23791,E,1.590,301.18,020221,2.60,W,D*32
$GNGGA,014744.00,2930.44865,N,10634.23791,E,2,12,1.08,238.8,M,-26.5,M,,0000*69
$GNRMC,014745.00,A,2930.44893,N,10634.23747,E,1.574,304.29,020221,2.60,W,D*3C
$GNGGA,014745.00,2930.44893,N,10634.23747,E,2,12,1.08,238.8,M,-26.5,M,,0000*6A
$GNRMC,014746.00,A,2930.44913,N,10634.23718,E,0.921,306.30,020221,2.60,W,D*3B
$GNGGA,014746.00,2930.44913,N,10634.23718,E,2,12,1.08,238.9,M,-26.5,M,,0000*6B
$GNRMC,014747.00,A,2930.44930,N,10634.23698,E,0.693,307.83,020221,2.60,W,D*3D
$GNGGA,014747.00,2930.44930,N,10634.23698,E,2,12,0.93,238.9,M,-26.5,M,,0000*61
$GNRMC,014748.00,A,2930.44940,N,10634.23687,E,0.471,308.72,020221,2.60,W,D*34
$GNGGA,014748.00,2930.44940,N,10634.23687,E,2,12,1.08,238.9,M,-26.5,M,,0000*64
$GNRMC,014749.00,A,2930.44959,N,10634.23663,E,1.529,310.83,020221,2.60,W,D*3D
$GNGGA,014749.00,2930.44959,N,10634.23663,E,2,12,1.08,238.9,M,-26.5,M,,0000*67
$GNRMC,014750.00,A,2930.44998,N,10634.23618,E,2.377,313.68,020221,2.60,W,D*3C
$GNGGA,014750.00,2930.44998,N,10634.23618,E,2,12,1.08,238.9,M,-26.5,M,,0000*6E
$GNRMC,014751.00,A,2930.45052,N,10634.23559,E,2.848,315.89,020221,2.60,W,D*3B
$GNGGA,014751.00,2930.45052,N,10634.23559,E,2,12,0.93,238.9,M,-26.5,M,,0000*64
$GNRMC,014752.00,A,2930.45108,N,10634.23501,E,2.568,317.98,020221,2.60,W,D*36
$GNGGA,014752.00,2930.45108,N,10634.23501,E,2,12,0.93,238.9,M,-26.5,M,,0000*64
$GNRMC,014753.00,A,2930.45164,N,10634.23448,E,2.598,320.02,020221,2.60,W,D*39
$GNGGA,014753.00,2930.45164,N,10634.23448,E,2,12,1.08,238.9,M,-26.5,M,,0000*60
$GNRMC,014754.00,A,2930.45229,N,10634.23391,E,3.236,322.39,020221,2.60,W,D*3F
$GNGGA,014754.00,2930.45229,N,10634.23391,E,2,12,0.93,238.9,M,-26.5,M,,0000*6D
$GNRMC,014755.00,A,2930.45309,N,10634.23326,E,3.986,325.29,020221,2.60,W,D*37
$GNGGA,014755.00,2930.45309,N,10634.23326,E,2,12,0.93,238.9,M,-26.5,M,,0000*63
$GNRMC,014756.00,A,2930.45439,N,10634.23234,E,6.645,330.29,020221,2.60,W,D*33
$GNGGA,014756.00,2930.45439,N,10634.23234,E,2,12,0.93,238.7,M,-26.5,M,,0000*68
$GNRMC,014757.00,A,2930.45629,N,10634.23136,E,8.335,339.65,020221,2.60,W,D*3D
$GNGGA,014757.00,2930.45629,N,10634.23136,E,2,12,0.93,238.4,M,-26.5,M,,0000*68
$GNRMC,014758.00,A,2930.45878,N,10634.23046,E,10.543,344.82,020221,2.60,W,D*03
$GNGGA,014758.00,2930.45878,N,10634.23046,E,2,12,0.93,237.9,M,-26.5,M,,0000*69
$GNRMC,014759.00,A,2930.46197,N,10634.22966,E,12.431,348.83,020221,2.60,W,D*08
$GNGGA,014759.00,2930.46197,N,10634.22966,E,2,12,0.93,237.4,M,-26.5,M,,0000*64
$GNRMC,014800.00,A,2930.46551,N,10634.22901,E,12.953,351.79,020221,2.60,W,D*00
$GNGGA,014800.00,2930.46551,N,10634.22901,E,2,12,0.93,237.0,M,-26.5,M,,0000*6C
$GNRMC,014801.00,A,2930.46904,N,10634.22846,E,12.590,352.66,020221,2.60,W,D*01
$GNGGA,014801.00,2930.46904,N,10634.22846,E,2,12,0.96,236.9,M,-26.5,M,,0000*6E
$GNRMC,014802.00,A,2930.47241,N,10634.22796,E,11.571,352.80,020221,2.60,W,D*0F
$GNGGA,014802.00,2930.47241,N,10634.22796,E,2,12,1.39,236.9,M,-26.5,M,,0000*60
$GNRMC,014803.00,A,2930.47556,N,10634.22750,E,11.045,352.91,020221,2.60,W,D*07
$GNGGA,014803.00,2930.47556,N,10634.22750,E,2,12,1.56,237.0,M,-26.5,M,,0000*6B
$GNRMC,014804.00,A,2930.47855,N,10634.22707,E,10.565,352.78,020221,2.60,W,D*0D
$GNGGA,014804.00,2930.47855,N,10634.22707,E,2,12,1.88,237.1,M,-26.5,M,,0000*62
$GNRMC,014805.00,A,2930.48145,N,10634.22663,E,10.356,352.89,020221,2.60,W,D*00
$GNGGA,014805.00,2930.48145,N,10634.22663,E,2,12,1.88,237.2,M,-26.5,M,,0000*64
$GNRMC,014806.00,A,2930.48429,N,10634.22621,E,10.106,352.92,020221,2.60,W,D*07
$GNGGA,014806.00,2930.48429,N,10634.22621,E,2,12,1.42,237.2,M,-26.5,M,,0000*68
$GNRMC,014807.00,A,2930.48706,N,10634.22581,E,9.860,352.86,020221,2.60,W,D*35
$GNGGA,014807.00,2930.48706,N,10634.22581,E,2,12,1.34,237.3,M,-26.5,M,,0000*6E
$GNRMC,014808.00,A,2930.48974,N,10634.22541,E,9.387,352.83,020221,2.60,W,D*3A
$GNGGA,014808.00,2930.48974,N,10634.22541,E,2,12,1.10,237.4,M,-26.5,M,,0000*67
$GNRMC,014809.00,A,2930.49220,N,10634.22505,E,8.449,352.91,020221,2.60,W,D*37
$GNGGA,014809.00,2930.49220,N,10634.22505,E,2,12,1.30,237.4,M,-26.5,M,,0000*6F
$GNRMC,014810.00,A,2930.49446,N,10634.22476,E,7.736,352.93,020221,2.60,W,D*3A
$GNGGA,014810.00,2930.49446,N,10634.22476,E,2,12,1.25,237.5,M,-26.5,M,,0000*61
$GNRMC,014811.00,A,2930.49658,N,10634.22448,E,7.468,352.87,020221,2.60,W,D*36
$GNGGA,014811.00,2930.49658,N,10634.22448,E,2,12,0.93,237.6,M,-26.5,M,,0000*6F
$GNRMC,014812.00,A,2930.49861,N,10634.22419,E,7.202,352.86,020221,2.60,W,D*3E
$GNGGA,014812.00,2930.49861,N,10634.22419,E,2,11,0.95,237.6,M,-26.5,M,,0000*69
$GNRMC,014813.00,A,2930.50057,N,10634.22393,E,6.783,353.17,020221,2.60,W,D*3B
$GNGGA,014813.00,2930.50057,N,10634.22393,E,2,12,1.09,237.7,M,-26.5,M,,0000*6E
$GNRMC,014814.00,A,2930.50234,N,10634.22365,E,6.222,352.97,020221,2.60,W,D*35
$GNGGA,014814.00,2930.50234,N,10634.22365,E,2,12,0.95,237.7,M,-26.5,M,,0000*63
$GNRMC,014815.00,A,2930.50401,N,10634.22340,E,5.645,352.82,020221,2.60,W,D*31
$GNGGA,014815.00,2930.50401,N,10634.22340,E,2,12,0.95,237.8,M,-26.5,M,,0000*6A
$GNRMC,014816.00,A,2930.50550,N,10634.22319,E,5.321,352.91,020221,2.60,W,D*3E
$GNGGA,014816.00,2930.50550,N,10634.22319,E,2,12,1.12,237.9,M,-26.5,M,,0000*6F
$GNRMC,014817.00,A,2930.50701,N,10634.22295,E,5.507,352.94,020221,2.60,W,D*3B
$GNGGA,014817.00,2930.50701,N,10634.22295,E,2,12,0.93,237.9,M,-26.5,M,,0000*65
$GNRMC,014818.00,A,2930.50855,N,10634.22272,E,5.659,352.89,020221,2.60,W,D*37
$GNGGA,014818.00,2930.50855,N,10634.22272,E,2,12,0.93,237.9,M,-26.5,M,,0000*6D
$GNRMC,014819.00,A,2930.51009,N,10634.22247,E,5.568,352.81,020221,2.60,W,D*39
$GNGGA,014819.00,2930.51009,N,10634.22247,E,2,12,0.93,237.9,M,-26.5,M,,0000*6A
$GNRMC,014820.00,A,2930.51157,N,10634.22226,E,5.134,352.75,020221,2.60,W,D*38
$GNGGA,014820.00,2930.51157,N,10634.22226,E,2,12,0.93,237.9,M,-26.5,M,,0000*6D
$GNRMC,014821.00,A,2930.51302,N,10634.22208,E,5.318,352.79,020221,2.60,W,D*37
$GNGGA,014821.00,2930.51302,N,10634.22208,E,2,12,0.93,237.9,M,-26.5,M,,0000*62
$GNRMC,014822.00,A,2930.51452,N,10634.22186,E,5.486,353.08,020221,2.60,W,D*34
$GNGGA,014822.00,2930.51452,N,10634.22186,E,2,12,0.93,237.9,M,-26.5,M,,0000*66
$GNRMC,014823.00,A,2930.51605,N,10634.22163,E,5.648,353.41,020221,2.60,W,D*33
$GNGGA,014823.00,2930.51605,N,10634.22163,E,2,12,1.12,237.9,M,-26.5,M,,0000*64
$GNRMC,014824.00,A,2930.51766,N,10634.22141,E,5.991,353.59,020221,2.60,W,D*32
$GNGGA,014824.00,2930.51766,N,10634.22141,E,2,11,1.12,237.9,M,-26.5,M,,0000*64
$GNRMC,014825.00,A,2930.51939,N,10634.22120,E,6.413,353.65,020221,2.60,W,D*3B
$GNGGA,014825.00,2930.51939,N,10634.22120,E,2,11,1.12,237.8,M,-26.5,M,,0000*67
$GNRMC,014826.00,A,2930.52122,N,10634.22094,E,6.811,353.50,020221,2.60,W,D*3F
$GNGGA,014826.00,2930.52122,N,10634.22094,E,2,11,1.12,237.8,M,-26.5,M,,0000*6B
$GNRMC,014827.00,A,2930.52332,N,10634.22065,E,8.463,353.51,020221,2.60,W,D*35
$GNGGA,014827.00,2930.52332,N,10634.22065,E,2,12,1.13,237.7,M,-26.5,M,,0000*6A
$GNRMC,014828.00,A,2930.52593,N,10634.22020,E,10.258,352.87,020221,2.60,W,D*0B
$GNGGA,014828.00,2930.52593,N,10634.22020,E,2,12,1.13,237.5,M,-26.5,M,,0000*6B
$GNRMC,014829.00,A,2930.52888,N,10634.21982,E,11.012,352.50,020221,2.60,W,D*08
$GNGGA,014829.00,2930.52888,N,10634.21982,E,2,12,1.13,237.4,M,-26.5,M,,0000*6E
$GNRMC,014830.00,A,2930.53221,N,10634.21925,E,12.984,352.55,020221,2.60,W,D*05
$GNGGA,014830.00,2930.53221,N,10634.21925,E,2,12,1.18,237.1,M,-26.5,M,,0000*6D
$GNRMC,014831.00,A,2930.53610,N,10634.21864,E,14.968,352.48,020221,2.60,W,D*0E
$GNGGA,014831.00,2930.53610,N,10634.21864,E,2,12,0.98,236.7,M,-26.5,M,,0000*60
$GNRMC,014832.00,A,2930.54056,N,10634.21788,E,17.213,352.37,020221,2.60,W,D*0F
$GNGGA,014832.00,2930.54056,N,10634.21788,E,2,12,1.30,236.2,M,-26.5,M,,0000*6B
$GNRMC,014833.00,A,2930.54566,N,10634.21700,E,19.200,352.23,020221,2.60,W,D*01
$GNGGA,014833.00,2930.54566,N,10634.21700,E,2,11,1.30,235.6,M,-26.5,M,,0000*68
$GNRMC,014834.00,A,2930.55083,N,10634.21638,E,17.479,352.72,020221,2.60,W,D*01
$GNGGA,014834.00,2930.55083,N,10634.21638,E,2,12,1.30,235.5,M,-26.5,M,,0000*6A
$GNRMC,014835.00,A,2930.55557,N,10634.21582,E,16.632,353.24,020221,2.60,W,D*00
$GNGGA,014835.00,2930.55557,N,10634.21582,E,2,12,1.08,235.7,M,-26.5,M,,0000*6C
$GNRMC,014836.00,A,2930.56020,N,10634.21521,E,16.522,353.93,020221,2.60,W,D*02
$GNGGA,014836.00,2930.56020,N,10634.21521,E,2,11,1.26,235.6,M,-26.5,M,,0000*6E
$GNRMC,014837.00,A,2930.56468,N,10634.21475,E,15.543,354.64,020221,2.60,W,D*00
$GNGGA,014837.00,2930.56468,N,10634.21475,E,2,12,1.13,235.6,M,-26.5,M,,0000*62
$GNRMC,014838.00,A,2930.56879,N,10634.21435,E,13.846,355.22,020221,2.60,W,D*0A
$GNGGA,014838.00,2930.56879,N,10634.21435,E,2,12,1.08,235.7,M,-26.5,M,,0000*6E
$GNRMC,014839.00,A,2930.57259,N,10634.21403,E,13.549,355.40,020221,2.60,W,D*01
$GNGGA,014839.00,2930.57259,N,10634.21403,E,2,10,1.75,235.7,M,-26.5,M,,0000*6B
$GNRMC,014840.00,A,2930.57640,N,10634.21364,E,14.037,355.28,020221,2.60,W,D*00
$GNGGA,014840.00,2930.57640,N,10634.21364,E,2,12,1.10,235.5,M,-26.5,M,,0000*6C
$GNRMC,014841.00,A,2930.58036,N,10634.21329,E,14.133,355.96,020221,2.60,W,D*00
$GNGGA,014841.00,2930.58036,N,10634.21329,E,2,12,1.29,235.3,M,-26.5,M,,0000*60
$GNRMC,014842.00,A,2930.58415,N,10634.21299,E,13.092,356.73,020221,2.60,W,D*09
$GNGGA,014842.00,2930.58415,N,10634.21299,E,2,12,2.93,235.3,M,-26.5,M,,0000*6E
$GNRMC,014843.00,A,2930.58771,N,10634.21279,E,12.546,357.14,020221,2.60,W,D*0A
$GNGGA,014843.00,2930.58771,N,10634.21279,E,2,12,1.90,235.3,M,-26.5,M,,0000*60
$GNRMC,014844.00,A,2930.59118,N,10634.21258,E,12.447,356.99,020221,2.60,W,D*02
$GNGGA,014844.00,2930.59118,N,10634.21258,E,2,12,1.66,235.3,M,-26.5,M,,0000*65
$GNRMC,014845.00,A,2930.59472,N,10634.21234,E,13.267,356.89,020221,2.60,W,D*04
$GNGGA,014845.00,2930.59472,N,10634.21234,E,2,12,1.14,235.2,M,-26.5,M,,0000*63
$GNRMC,014846.00,A,2930.59847,N,10634.21209,E,13.725,357.40,020221,2.60,W,D*04
$GNGGA,014846.00,2930.59847,N,10634.21209,E,2,12,2.36,235.0,M,-26.5,M,,0000*65
$GNRMC,014847.00,A,2930.60226,N,10634.21190,E,13.394,358.00,020221,2.60,W,D*04
$GNGGA,014847.00,2930.60226,N,10634.21190,E,2,12,2.33,234.8,M,-26.5,M,,0000*6C
$GNRMC,014848.00,A,2930.60592,N,10634.21173,E,12.711,358.42,020221,2.60,W,D*00
$GNGGA,014848.00,2930.60592,N,10634.21173,E,2,12,1.05,234.8,M,-26.5,M,,0000*60
$GNRMC,014849.00,A,2930.60930,N,10634.21166,E,11.832,358.79,020221,2.60,W,D*04
$GNGGA,014849.00,2930.60930,N,10634.21166,E,2,12,1.45,234.8,M,-26.5,M,,0000*65
$GNRMC,014850.00,A,2930.61257,N,10634.21160,E,11.676,359.25,020221,2.60,W,D*07
$GNGGA,014850.00,2930.61257,N,10634.21160,E,2,11,0.99,234.8,M,-26.5,M,,0000*63
$GNRMC,014851.00,A,2930.61567,N,10634.21157,E,10.459,359.60,020221,2.60,W,D*09
$GNGGA,014851.00,2930.61567,N,10634.21157,E,2,12,0.84,234.8,M,-26.5,M,,0000*6D
$GNRMC,014852.00,A,2930.61829,N,10634.21154,E,8.309,359.84,020221,2.60,W,D*3F
$GNGGA,014852.00,2930.61829,N,10634.21154,E,2,10,0.97,235.0,M,-26.5,M,,0000*63
$GNRMC,014853.00,A,2930.62042,N,10634.21159,E,7.226,0.13,020221,2.60,W,D*37
$GNGGA,014853.00,2930.62042,N,10634.21159,E,2,11,2.03,235.1,M,-26.5,M,,0000*66
$GNRMC,014854.00,A,2930.62213,N,10634.21160,E,4.980,0.29,020221,2.60,W,D*31
$GNGGA,014854.00,2930.62213,N,10634.21160,E,2,11,1.08,235.2,M,-26.5,M,,0000*66
$GNRMC,014855.00,A,2930.62326,N,10634.21161,E,3.308,0.40,020221,2.60,W,D*34
$GNGGA,014855.00,2930.62326,N,10634.21161,E,2,12,1.11,235.3,M,-26.5,M,,0000*6B
$GNRMC,014856.00,A,2930.62409,N,10634.21166,E,2.629,0.50,020221,2.60,W,D*3C
$GNGGA,014856.00,2930.62409,N,10634.21166,E,2,12,0.97,235.3,M,-26.5,M,,0000*6A
$GNRMC,014857.00,A,2930.62478,N,10634.21174,E,2.355,0.61,020221,2.60,W,D*34
$GNGGA,014857.00,2930.62478,N,10634.21174,E,2,12,0.95,235.3,M,-26.5,M,,0000*6C
$GNRMC,014858.00,A,2930.62541,N,10634.21180,E,1.967,0.70,020221,2.60,W,D*33
$GNGGA,014858.00,2930.62541,N,10634.21180,E,2,12,0.95,235.4,M,-26.5,M,,0000*64
$GNRMC,014859.00,A,2930.62592,N,10634.21182,E,1.450,0.75,020221,2.60,W,D*32
$GNGGA,014859.00,2930.62592,N,10634.21182,E,2,12,0.95,235.4,M,-26.5,M,,0000*69
$GNRMC,014900.00,A,2930.62609,N,10634.21184,E,0.011,0.76,020221,2.60,W,D*3B
$GNGGA,014900.00,2930.62609,N,10634.21184,E,2,12,1.11,235.4,M,-26.5,M,,0000*6E
$GNRMC,014901.00,A,2930.62610,N,10634.21186,E,0.000,0.79,020221,2.60,W,D*3F
$GNGGA,014901.00,2930.62610,N,10634.21186,E,2,12,0.97,235.4,M,-26.5,M,,0000*6A
$GNRMC,014902.00,A,2930.62610,N,10634.21186,E,0.000,0.79,020221,2.60,W,D*3C
$GNGGA,014902.00,2930.62610,N,10634.21186,E,2,12,1.43,235.4,M,-26.5,M,,0000*61
$GNRMC,014903.00,A,2930.62610,N,10634.21186,E,0.000,0.79,020221,2.60,W,D*3D
$GNGGA,014903.00,2930.62610,N,10634.21186,E,2,12,1.43,235.4,M,-26.5,M,,0000*60
$GNRMC,014904.00,A,2930.62610,N,10634.21186,E,0.000,0.79,020221,2.60,W,D*3A
$GNGGA,014904.00,2930.62610,N,10634.21186,E,2,12,1.20,235.4,M,-26.5,M,,0000*62
$GNRMC,014905.00,A,2930.62610,N,10634.21186,E,0.000,0.79,020221,2.60,W,D*3B
$GNGGA,014905.00,2930.62610,N,10634.21186,E,2,12,0.95,235.4,M,-26.5,M,,0000*6C
$GNRMC,014906.00,A,2930.62610,N,10634.21186,E,0.000,0.79,020221,2.60,W,D*38
$GNGGA,014906.00,2930.62610,N,10634.21186,E,2,12,1.16,235.4,M,-26.5,M,,0000*65
$GNRMC,014907.00,A,2930.62610,N,10634.21186,E,0.000,0.79,020221,2.60,W,D*39
$GNGGA,014907.00,2930.62610,N,10634.21186,E,2,12,0.95,235.4,M,-26.5,M,,0000*6E
$GNRMC,014908.00,A,2930.62610,N,10634.21186,E,0.000,0.79,020221,2.60,W,D*36
$GNGGA,014908.00,2930.62610,N,10634.21186,E,2,12,0.95,235.4,M,-26.5,M,,0000*61
$GNRMC,014909.00,A,2930.62610,N,10634.21186,E,0.000,0.79,020221,2.60,W,D*37
$GNGGA,014909.00,2930.62610,N,10634.21186,E,2,12,1.16,235.4,M,-26.5,M,,0000*6A
$GNRMC,014910.00,A,2930.62610,N,10634.21186,E,0.000,0.79,020221,2.60,W,D*3F
$GNGGA,014910.00,2930.62610,N,10634.21186,E,2,12,1.43,235.4,M,-26.5,M,,0000*62
$GNRMC,014911.00,A,2930.62610,N,10634.21186,E,0.000,0.79,020221,2.60,W,D*3E
$GNGGA,014911.00,2930.62610,N,10634.21186,E,2,12,1.09,235.4,M,-26.5,M,,0000*6D
$GNRMC,014912.00,A,2930.62610,N,10634.21186,E,0.000,0.79,020221,2.60,W,D*3D
$GNGGA,014912.00,2930.62610,N,10634.21186,E,2,12,1.09,235.4,M,-26.5,M,,0000*6E
$GNRMC,014913.00,A,2930.62610,N,10634.21186,E,0.000,0.79,020221,2.60,W,D*3C
$GNGGA,014913.00,2930.62610,N,10634.21186,E,2,11,1.21,235.4,M,-26.5,M,,0000*66
$GNRMC,014914.00,A,2930.62610,N,10634.21186,E,0.000,0.79,020221,2.60,W,D*3B
$GNGGA,014914.00,2930.62610,N,10634.21186,E,2,11,1.21,235.4,M,-26.5,M,,0000*61
$GNRMC,014915.00,A,2930.62610,N,10634.21186,E,0.000,0.79,020221,2.60,W,D*3A
$GNGGA,014915.00,2930.62610,N,10634.21186,E,2,11,1.21,235.4,M,-26.5,M,,0000*60
$GNRMC,014916.00,A,2930.62610,N,10634.21186,E,0.000,0.79,020221,2.60,W,D*39
$GNGGA,014916.00,2930.62610,N,10634.21186,E,2,11,1.29,235.4,M,-26.5,M,,0000*6B
$GNRMC,014917.00,A,2930.62610,N,10634.21186,E,0.000,0.79,020221,2.60,W,D*38
$GNGGA,014917.00,2930.62610,N,10634.21186,E,2,11,1.29,235.4,M,-26.5,M,,0000*6A
$GNRMC,014918.00,A,2930.62610,N,10634.21186,E,0.000,0.79,020221,2.60,W,D*37
$GNGGA,014918.00,2930.62610,N,10634.21186,E,2,12,1.29,235.4,M,-26.5,M,,0000*66
$GNRMC,014919.00,A,2930.62610,N,10634.21186,E,0.000,0.79,020221,2.60,W,D*36
$GNGGA,014919.00,2930.62610,N,10634.21186,E,2,12,1.29,235.4,M,-26.5,M,,0000*67
$GNRMC,014920.00,A,2930.62610,N,10634.21186,E,0.025,0.79,020221,2.60,W,D*3B
$GNGGA,014920.00,2930.62610,N,10634.21186,E,2,11,1.21,235.4,M,-26.5,M,,0000*66
$GNRMC,014921.00,A,2930.62610,N,10634.21185,E,0.001,0.79,020221,2.60,W,D*3F
$GNGGA,014921.00,2930.62610,N,10634.21185,E,2,11,1.43,235.4,M,-26.5,M,,0000*60
$GNRMC,014922.00,A,2930.62612,N,10634.21184,E,0.147,0.78,020221,2.60,W,D*3D
$GNGGA,014922.00,2930.62612,N,10634.21184,E,2,11,1.43,235.4,M,-26.5,M,,0000*60
$GNRMC,014923.00,A,2930.62615,N,10634.21184,E,0.081,0.78,020221,2.60,W,D*30
$GNGGA,014923.00,2930.62615,N,10634.21184,E,2,11,1.45,235.4,M,-26.5,M,,0000*60
$GNRMC,014924.00,A,2930.62615,N,10634.21183,E,0.000,0.78,020221,2.60,W,D*39
$GNGGA,014924.00,2930.62615,N,10634.21183,E,2,12,1.22,235.3,M,-26.5,M,,0000*65
$GNRMC,014925.00,A,2930.62615,N,10634.21182,E,0.005,0.77,020221,2.60,W,D*33
$GNGGA,014925.00,2930.62615,N,10634.21182,E,2,12,1.22,235.3,M,-26.5,M,,0000*65
$GNRMC,014926.00,A,2930.62623,N,10634.21183,E,0.680,0.79,020221,2.60,W,D*31
$GNGGA,014926.00,2930.62623,N,10634.21183,E,2,12,0.98,235.3,M,-26.5,M,,0000*62
$GNRMC,014927.00,A,2930.62649,N,10634.21184,E,1.051,0.81,020221,2.60,W,D*37
$GNGGA,014927.00,2930.62649,N,10634.21184,E,2,12,1.81,235.3,M,-26.5,M,,0000*61
$GNRMC,014928.00,A,2930.62677,N,10634.21184,E,1.182,0.82,020221,2.60,W,D*39
$GNGGA,014928.00,2930.62677,N,10634.21184,E,2,12,2.78,235.3,M,-26.5,M,,0000*66
$GNRMC,014929.00,A,2930.62721,N,10634.21185,E,2.049,0.85,020221,2.60,W,D*39
$GNGGA,014929.00,2930.62721,N,10634.21185,E,2,12,3.05,235.3,M,-26.5,M,,0000*6F
$GNRMC,014930.00,A,2930.62792,N,10634.21186,E,3.029,0.90,020221,2.60,W,D*39
$GNGGA,014930.00,2930.62792,N,10634.21186,E,2,12,2.78,235.2,M,-26.5,M,,0000*66
$GNRMC,014931.00,A,2930.62899,N,10634.21188,E,4.880,0.98,020221,2.60,W,D*36
$GNGGA,014931.00,2930.62899,N,10634.21188,E,2,12,2.78,235.1,M,-26.5,M,,0000*6E
$GNRMC,014932.00,A,2930.63068,N,10634.21193,E,7.144,1.53,020221,2.60,W,D*3C
$GNGGA,014932.00,2930.63068,N,10634.21193,E,2,11,1.81,234.9,M,-26.5,M,,0000*6F
$GNRMC,014933.00,A,2930.63282,N,10634.21201,E,8.049,2.32,020221,2.60,W,D*34
$GNGGA,014933.00,2930.63282,N,10634.21201,E,2,12,2.78,234.6,M,-26.5,M,,0000*69
$GNRMC,014934.00,A,2930.63511,N,10634.21212,E,8.273,2.17,020221,2.60,W,D*30
$GNGGA,014934.00,2930.63511,N,10634.21212,E,2,12,1.81,234.5,M,-26.5,M,,0000*67
$GNRMC,014935.00,A,2930.63745,N,10634.21221,E,8.541,2.07,020221,2.60,W,D*35
$GNGGA,014935.00,2930.63745,N,10634.21221,E,2,12,1.32,234.4,M,-26.5,M,,0000*6C
$GNRMC,014936.00,A,2930.63987,N,10634.21231,E,8.990,2.13,020221,2.60,W,D*32
$GNGGA,014936.00,2930.63987,N,10634.21231,E,2,11,1.59,234.2,M,-26.5,M,,0000*66
$GNRMC,014937.00,A,2930.64249,N,10634.21243,E,9.749,2.28,020221,2.60,W,D*3B
$GNGGA,014937.00,2930.64249,N,10634.21243,E,2,10,4.79,234.0,M,-26.5,M,,0000*68
$GNRMC,014938.00,A,2930.64522,N,10634.21255,E,9.822,2.58,020221,2.60,W,D*3C
$GNGGA,014938.00,2930.64522,N,10634.21255,E,2,10,1.98,233.9,M,-26.5,M,,0000*6E
$GNRMC,014939.00,A,2930.64794,N,10634.21272,E,9.728,2.98,020221,2.60,W,D*3E
$GNGGA,014939.00,2930.64794,N,10634.21272,E,2,10,1.24,233.8,M,-26.5,M,,0000*63
$GNRMC,014940.00,A,2930.65064,N,10634.21290,E,9.729,3.26,020221,2.60,W,D*30
$GNGGA,014940.00,2930.65064,N,10634.21290,E,2,11,1.09,233.7,M,-26.5,M,,0000*69
$GNRMC,014941.00,A,2930.65339,N,10634.21311,E,10.155,3.51,020221,2.60,W,D*07
$GNGGA,014941.00,2930.65339,N,10634.21311,E,2,12,1.09,233.6,M,-26.5,M,,0000*69
$GNRMC,014942.00,A,2930.65641,N,10634.21337,E,11.528,3.81,020221,2.60,W,D*08
$GNGGA,014942.00,2930.65641,N,10634.21337,E,2,12,1.10,233.3,M,-26.5,M,,0000*69
$GNRMC,014943.00,A,2930.65968,N,10634.21366,E,11.881,4.41,020221,2.60,W,D*0C
$GNGGA,014943.00,2930.65968,N,10634.21366,E,2,12,1.20,233.1,M,-26.5,M,,0000*69
$GNRMC,014944.00,A,2930.66298,N,10634.21401,E,12.047,4.59,020221,2.60,W,D*02
$GNGGA,014944.00,2930.66298,N,10634.21401,E,2,12,1.10,232.9,M,-26.5,M,,0000*65
$GNRMC,014945.00,A,2930.66641,N,10634.21446,E,12.834,5.42,020221,2.60,W,D*07
$GNGGA,014945.00,2930.66641,N,10634.21446,E,2,12,1.09,232.7,M,-26.5,M,,0000*61
$GNRMC,014946.00,A,2930.66995,N,10634.21489,E,12.725,6.14,020221,2.60,W,D*0E
$GNGGA,014946.00,2930.66995,N,10634.21489,E,2,12,1.09,232.7,M,-26.5,M,,0000*67
$GNRMC,014947.00,A,2930.67356,N,10634.21536,E,13.551,5.98,020221,2.60,W,D*09
$GNGGA,014947.00,2930.67356,N,10634.21536,E,2,12,1.09,232.6,M,-26.5,M,,0000*66
$GNRMC,014948.00,A,2930.67751,N,10634.21582,E,14.933,6.36,020221,2.60,W,D*02
$GNGGA,014948.00,2930.67751,N,10634.21582,E,2,11,1.11,232.3,M,-26.5,M,,0000*6A
$GNRMC,014949.00,A,2930.68181,N,10634.21639,E,16.105,7.14,020221,2.60,W,D*0A
$GNGGA,014949.00,2930.68181,N,10634.21639,E,2,12,1.01,231.9,M,-26.5,M,,0000*67
$GNRMC,014950.00,A,2930.68628,N,10634.21705,E,16.177,7.86,020221,2.60,W,D*06
$GNGGA,014950.00,2930.68628,N,10634.21705,E,2,11,1.01,231.7,M,-26.5,M,,0000*68
$GNRMC,014951.00,A,2930.69071,N,10634.21777,E,15.912,8.11,020221,2.60,W,D*00
$GNGGA,014951.00,2930.69071,N,10634.21777,E,2,12,1.01,231.6,M,-26.5,M,,0000*65
$GNRMC,014952.00,A,2930.69504,N,10634.21847,E,15.612,8.28,020221,2.60,W,D*0D
$GNGGA,014952.00,2930.69504,N,10634.21847,E,2,11,1.04,231.6,M,-26.5,M,,0000*6B
$GNRMC,014953.00,A,2930.69930,N,10634.21922,E,15.455,9.44,020221,2.60,W,D*0F
$GNGGA,014953.00,2930.69930,N,10634.21922,E,2,12,1.00,231.5,M,-26.5,M,,0000*67
$GNRMC,014954.00,A,2930.70362,N,10634.22010,E,16.143,10.39,020221,2.60,W,D*35
$GNGGA,014954.00,2930.70362,N,10634.22010,E,2,12,1.01,231.3,M,-26.5,M,,0000*69
$GNRMC,014955.00,A,2930.70809,N,10634.22107,E,16.431,11.43,020221,2.60,W,D*39
$GNGGA,014955.00,2930.70809,N,10634.22107,E,2,12,1.09,231.1,M,-26.5,M,,0000*63
$GNRMC,014956.00,A,2930.71248,N,10634.22216,E,15.716,11.77,020221,2.60,W,D*35
$GNGGA,014956.00,2930.71248,N,10634.22216,E,2,10,1.18,231.1,M,-26.5,M,,0000*6F
$GNRMC,014957.00,A,2930.71654,N,10634.22316,E,14.036,11.75,020221,2.60,W,D*3A
$GNGGA,014957.00,2930.71654,N,10634.22316,E,2,12,1.18,231.3,M,-26.5,M,,0000*66
$GNRMC,014958.00,A,2930.72023,N,10634.22407,E,13.174,11.80,020221,2.60,W,D*3D
$GNGGA,014958.00,2930.72023,N,10634.22407,E,2,11,1.18,231.5,M,-26.5,M,,0000*6E
$GNRMC,014959.00,A,2930.72373,N,10634.22493,E,12.452,11.96,020221,2.60,W,D*30
$GNGGA,014959.00,2930.72373,N,10634.22493,E,2,12,1.10,231.7,M,-26.5,M,,0000*6D
$GNRMC,015000.00,A,2930.72686,N,10634.22567,E,10.615,12.04,020221,2.60,W,D*3A
$GNGGA,015000.00,2930.72686,N,10634.22567,E,2,12,1.09,231.9,M,-26.5,M,,0000*6A
$GNRMC,015001.00,A,2930.72959,N,10634.22635,E,9.324,12.05,020221,2.60,W,D*0C
$GNGGA,015001.00,2930.72959,N,10634.22635,E,2,12,1.17,232.1,M,-26.5,M,,0000*66
$GNRMC,015002.00,A,2930.73202,N,10634.22697,E,8.563,12.35,020221,2.60,W,D*04
$GNGGA,015002.00,2930.73202,N,10634.22697,E,2,12,1.40,232.2,M,-26.5,M,,0000*68
$GNRMC,015003.00,A,2930.73428,N,10634.22753,E,8.127,12.81,020221,2.60,W,D*09
$GNGGA,015003.00,2930.73428,N,10634.22753,E,2,12,1.47,232.3,M,-26.5,M,,0000*68
$GNRMC,015004.00,A,2930.73645,N,10634.22809,E,7.833,12.97,020221,2.60,W,D*03
$GNGGA,015004.00,2930.73645,N,10634.22809,E,2,12,1.31,232.3,M,-26.5,M,,0000*67
$GNRMC,015005.00,A,2930.73848,N,10634.22861,E,6.952,13.09,020221,2.60,W,D*0E
$GNGGA,015005.00,2930.73848,N,10634.22861,E,2,12,1.25,232.4,M,-26.5,M,,0000*69
$GNRMC,015006.00,A,2930.74020,N,10634.22906,E,5.855,13.40,020221,2.60,W,D*04
$GNGGA,015006.00,2930.74020,N,10634.22906,E,2,12,1.07,232.4,M,-26.5,M,,0000*6B
$GNRMC,015007.00,A,2930.74170,N,10634.22948,E,5.176,13.83,020221,2.60,W,D*0C
$GNGGA,015007.00,2930.74170,N,10634.22948,E,2,12,1.41,232.5,M,-26.5,M,,0000*67
$GNRMC,015008.00,A,2930.74302,N,10634.22985,E,4.641,13.80,020221,2.60,W,D*04
$GNGGA,015008.00,2930.74302,N,10634.22985,E,2,12,1.41,232.5,M,-26.5,M,,0000*6E
$GNRMC,015009.00,A,2930.74423,N,10634.23019,E,4.229,13.02,020221,2.60,W,D*0C
$GNGGA,015009.00,2930.74423,N,10634.23019,E,2,12,0.84,232.6,M,-26.5,M,,0000*6D
$GNRMC,015010.00,A,2930.74516,N,10634.23042,E,2.658,13.35,020221,2.60,W,D*0D
$GNGGA,015010.00,2930.74516,N,10634.23042,E,2,12,1.07,232.6,M,-26.5,M,,0000*66
$GNRMC,015011.00,A,2930.74583,N,10634.23060,E,2.354,13.62,020221,2.60,W,D*0B
$GNGGA,015011.00,2930.74583,N,10634.23060,E,2,12,1.00,232.6,M,-26.5,M,,0000*6C
$GNRMC,015012.00,A,2930.74647,N,10634.23076,E,2.365,13.65,020221,2.60,W,D*01
$GNGGA,015012.00,2930.74647,N,10634.23076,E,2,12,1.00,232.7,M,-26.5,M,,0000*62
$GNRMC,015013.00,A,2930.74715,N,10634.23094,E,2.778,13.69,020221,2.60,W,D*0E
$GNGGA,015013.00,2930.74715,N,10634.23094,E,2,12,0.96,232.6,M,-26.5,M,,0000*66
$GNRMC,015014.00,A,2930.74796,N,10634.23116,E,3.084,13.92,020221,2.60,W,D*08
$GNGGA,015014.00,2930.74796,N,10634.23116,E,2,12,0.96,232.6,M,-26.5,M,,0000*61
$GNRMC,015015.00,A,2930.74884,N,10634.23142,E,3.569,14.14,020221,2.60,W,D*0B
$GNGGA,015015.00,2930.74884,N,10634.23142,E,2,12,0.99,232.6,M,-26.5,M,,0000*62
$GNRMC,015016.00,A,2930.75016,N,10634.23178,E,6.477,14.33,020221,2.60,W,D*0D
$GNGGA,015016.00,2930.75016,N,10634.23178,E,2,12,0.96,232.5,M,-26.5,M,,0000*66
$GNRMC,015017.00,A,2930.75216,N,10634.23236,E,8.181,14.52,020221,2.60,W,D*02
$GNGGA,015017.00,2930.75216,N,10634.23236,E,2,12,0.95,232.3,M,-26.5,M,,0000*69
$GNRMC,015018.00,A,2930.75438,N,10634.23306,E,8.291,14.89,020221,2.60,W,D*01
$GNGGA,015018.00,2930.75438,N,10634.23306,E,2,12,0.95,232.1,M,-26.5,M,,0000*6C
$GNRMC,015019.00,A,2930.75653,N,10634.23385,E,7.922,15.19,020221,2.60,W,D*00
$GNGGA,015019.00,2930.75653,N,10634.23385,E,2,12,1.18,232.2,M,-26.5,M,,0000*6E
$GNRMC,015020.00,A,2930.75852,N,10634.23456,E,7.101,15.30,020221,2.60,W,D*0E
$GNGGA,015020.00,2930.75852,N,10634.23456,E,2,11,1.23,232.2,M,-26.5,M,,0000*69
$GNRMC,015021.00,A,2930.76021,N,10634.23508,E,5.514,15.45,020221,2.60,W,D*0A
$GNGGA,015021.00,2930.76021,N,10634.23508,E,2,12,1.17,232.4,M,-26.5,M,,0000*6F
$GNRMC,015022.00,A,2930.76143,N,10634.23544,E,3.317,15.53,020221,2.60,W,D*00
$GNGGA,015022.00,2930.76143,N,10634.23544,E,2,12,1.18,232.5,M,-26.5,M,,0000*6F
$GNRMC,015023.00,A,2930.76204,N,10634.23560,E,1.639,15.55,020221,2.60,W,D*0A
$GNGGA,015023.00,2930.76204,N,10634.23560,E,2,12,1.14,232.7,M,-26.5,M,,0000*66
$GNRMC,015024.00,A,2930.76245,N,10634.23570,E,1.428,15.55,020221,2.60,W,D*0B
$GNGGA,015024.00,2930.76245,N,10634.23570,E,2,12,1.14,232.7,M,-26.5,M,,0000*65
$GNRMC,015025.00,A,2930.76287,N,10634.23579,E,1.652,15.54,020221,2.60,W,D*03
$GNGGA,015025.00,2930.76287,N,10634.23579,E,2,11,1.14,232.7,M,-26.5,M,,0000*60
$GNRMC,015026.00,A,2930.76340,N,10634.23592,E,2.501,15.56,020221,2.60,W,D*0B
$GNGGA,015026.00,2930.76340,N,10634.23592,E,2,12,1.23,232.7,M,-26.5,M,,0000*6B
$GNRMC,015027.00,A,2930.76444,N,10634.23622,E,5.304,15.48,020221,2.60,W,D*0A
$GNGGA,015027.00,2930.76444,N,10634.23622,E,2,12,1.23,232.7,M,-26.5,M,,0000*61
$GNRMC,015028.00,A,2930.76595,N,10634.23664,E,5.756,15.30,020221,2.60,W,D*06
$GNGGA,015028.00,2930.76595,N,10634.23664,E,2,12,1.20,232.6,M,-26.5,M,,0000*63
$GNRMC,015029.00,A,2930.76750,N,10634.23709,E,5.770,15.30,020221,2.60,W,D*02
$GNGGA,015029.00,2930.76750,N,10634.23709,E,2,12,1.18,232.6,M,-26.5,M,,0000*68
$GNRMC,015030.00,A,2930.76904,N,10634.23754,E,5.474,15.34,020221,2.60,W,D*0E
$GNGGA,015030.00,2930.76904,N,10634.23754,E,2,12,1.05,232.6,M,-26.5,M,,0000*6B
$GNRMC,015031.00,A,2930.77031,N,10634.23785,E,3.864,15.43,020221,2.60,W,D*06
$GNGGA,015031.00,2930.77031,N,10634.23785,E,2,12,1.05,232.7,M,-26.5,M,,0000*69
$GNRMC,015032.00,A,2930.77123,N,10634.23809,E,3.001,15.52,020221,2.60,W,D*07
$GNGGA,015032.00,2930.77123,N,10634.23809,E,2,12,1.05,232.8,M,-26.5,M,,0000*6C
$GNRMC,015033.00,A,2930.77199,N,10634.23829,E,2.696,15.58,020221,2.60,W,D*06
$GNGGA,015033.00,2930.77199,N,10634.23829,E,2,12,0.96,232.9,M,-26.5,M,,0000*64
$GNRMC,015034.00,A,2930.77268,N,10634.23845,E,2.372,15.56,020221,2.60,W,D*07
